[
    {
        "id": 1,
        "category": "Грузовой",
        "driver": {
            "name": "Иван Иванов",
            "number": "+79677313507"
        },
        "location": {
            "latitude": 55.796127,
            "longitude": 49.101419
        }
    },
    {
        "id": 2,
        "category": "Пассажирский",
        "driver": {
            "name": "Петр Петров",
            "number": "+79677313507"
        },
        "location": {
            "latitude": 55.796341,
            "longitude": 49.116960
        }
    },
    {
        "id": 3,
        "category": "Спецтранспорт",
        "driver": {
            "name": "Алексей Смирнов",
            "number": "+79677313507"
        },
        "location": {
            "latitude": 55.791557,
            "longitude": 49.102563
        }
    },
    {
        "id": 4,
        "category": "Грузовой",
        "driver": {
            "name": "Елена Ковалева",
            "number": "+79677313507"
        },
        "location": {
            "latitude": 55.796758,
            "longitude": 49.128248
        }
    },
    {
        "id": 5,
        "category": "Пассажирский",
        "driver": {
            "name": "Михаил Новиков",
            "number": "+79677313507"
        },
        "location": {
            "latitude": 55.791973,
            "longitude": 49.121810
        }
    },
    {
        "id": 6,
        "category": "Спецтранспорт",
        "driver": {
            "name": "Ольга Козлова",
            "number": "+79677313507"
        },
        "location": {
            "latitude": 55.787189,
            "longitude": 49.109427
        }
    },
    {
        "id": 7,
        "category": "Грузовой",
        "driver": {
            "name": "Андрей Иванов",
            "number": "+79677313507"
        },
        "location": {
            "latitude": 55.777428,
            "longitude": 49.109995
        }
    },
    {
        "id": 8,
        "category": "Пассажирский",
        "driver": {
            "name": "Екатерина Смирнова",
            "number": "+79677313507"
        },
        "location": {
            "latitude": 55.792638,
            "longitude": 49.110613
        }
    },
    {
        "id": 9,
        "category": "Спецтранспорт",
        "driver": {
            "name": "Дмитрий Ковалев",
            "number": "+79677313507"
        },
        "location": {
            "latitude": 55.787864,
            "longitude": 49.121202
        }
    },
    {
        "id": 10,
        "category": "Грузовой",
        "driver": {
            "name": "Светлана Новикова",
            "number": "+79677313507"
        },
        "location": {
            "latitude": 55.798086,
            "longitude": 49.111809
        }
    }
]